City_ID,City,Country,Max Temp,Current Description,Lat,Lng,Hotel Name
2,Kapaa,US,84.2,clear sky,22.08,-159.32,Sheraton Kauai Resort at Coconut Beach
10,Progreso,MX,90.0,broken clouds,21.28,-89.67,Playa Linda Hotel
14,Nhulunbuy,AU,77.0,broken clouds,-12.23,136.77,East Arnhem Real Estate
16,Saint George,US,82.99,clear sky,37.1,-113.58,Best Western Plus Abbey Inn
20,San Policarpo,PH,76.64,heavy intensity rain,12.18,125.51,Zal-Ann Beach Resort
29,Hilo,US,82.4,broken clouds,19.73,-155.09,Hilo Hawaiian Hotel
30,Labuhan,ID,78.4,overcast clouds,-6.88,112.21,bador sepret
32,Atuona,PF,78.17,clear sky,-9.8,-139.03,Villa Enata
34,Puerto Ayora,EC,78.8,few clouds,-0.74,-90.35,Finch Bay Galapagos Hotel
44,Bambous Virieux,MU,75.2,shower rain,-20.34,57.76,Casa Tia Villa
46,Panaba,MX,84.11,broken clouds,21.28,-88.27,Hotel Amor
47,Cam Ranh,VN,78.8,moderate rain,11.92,109.16,OYO 598 Peony Hotel
55,Soyo,AO,75.69,broken clouds,-6.13,12.37,Hotel Mpampa
61,Manaure,CO,85.53,light rain,11.78,-72.44,Del mar vendra
69,Muscat,OM,77.0,clear sky,23.61,58.59,Mutrah Hotel
71,Carutapera,BR,80.37,overcast clouds,-1.2,-46.02,Lidera
74,Bengkulu,ID,75.42,overcast clouds,-3.8,102.27,Grage Hotel Bengkulu
83,Avarua,CK,75.2,clear sky,-21.21,-159.78,Paradise Inn
88,Gat,IL,75.0,scattered clouds,31.61,34.76,OlusHome
90,Totolapan,MX,87.8,scattered clouds,18.52,-96.18,RANCHO LOS ZURITA
91,Vaini,TO,75.2,few clouds,-21.2,-175.2,Keleti Beach Resort
93,Meulaboh,ID,75.56,overcast clouds,4.14,96.13,Kost Pria
110,Faanui,PF,78.3,clear sky,-16.48,-151.75,Bora-Bora Pearl Beach Resort & Spa
111,Coahuayana,MX,84.2,scattered clouds,18.73,-103.68,Hotel Los Arcos
112,Amahai,ID,80.01,scattered clouds,-3.33,128.92,Peternakan Ayam Bangkok Manisso
114,Dhidhdhoo,MV,81.97,light rain,6.88,73.1,Dhidhoo beach
115,Hithadhoo,MV,82.47,overcast clouds,-0.6,73.08,Scoop Guest House
117,Butaritari,KI,81.79,broken clouds,3.07,172.79,Isles Sunset Lodge
129,Esmeraldas,BR,84.2,scattered clouds,-19.76,-44.31,Hotel Fazenda Lagoa Azul
130,Mexico,PH,75.2,broken clouds,15.06,120.72,stone place
134,Praia,CV,78.8,scattered clouds,14.92,-23.51,LT Aparthotel
140,Russell,US,86.0,clear sky,32.35,-85.2,Macs
141,San Andres,CO,87.8,broken clouds,12.58,-81.7,Hotel Arena Blanca
142,Buchanan,LR,76.48,overcast clouds,5.88,-10.05,Kamaneahn Hotel Inc
143,Dingle,PH,75.2,light rain,11.0,122.67,Camp Pasica
146,Mangrol,IN,82.11,overcast clouds,21.12,70.12,Hotel The Royal Honours
148,Gizo,SB,79.63,overcast clouds,-8.1,156.84,Imagination Island
156,Itarema,BR,79.14,scattered clouds,-2.92,-39.92,Windvillage
158,Natal,BR,80.6,scattered clouds,-5.79,-35.21,Villa Park Hotel | Natal
160,Porterville,US,84.99,clear sky,36.07,-119.02,Holiday Inn Express & Suites Porterville
161,Kutum,SD,79.48,clear sky,14.2,24.67,Dibbo areaمنطقة دبو
163,Rahatgarh,IN,76.3,overcast clouds,23.78,78.37,शेट्टी खान
167,Vila Velha,BR,78.01,overcast clouds,-20.33,-40.29,Hotel Vitória Palace
168,Ruston,US,75.2,clear sky,32.52,-92.64,"Country Inn & Suites by Radisson, Ruston, LA"
169,Kailua,US,86.0,broken clouds,21.4,-157.74,Sheffield House Bed & Breakfast
170,Nishihara,JP,77.0,broken clouds,26.18,127.76,Minshuku Agaihama
177,Souillac,MU,75.2,shower rain,-20.52,57.52,Bils' Villa
179,Buin,CL,75.99,broken clouds,-33.73,-70.75,Paihuen
182,Akyab,MM,80.24,overcast clouds,20.15,92.9,Hotel Memory
186,Grand Gaube,MU,75.0,clear sky,-20.01,57.66,Veranda Paul et Virginie Hotel & Spa
187,Mahebourg,MU,75.2,shower rain,-20.41,57.7,Shandrani Beachcomber Resort & Spa
192,San Quintin,MX,88.27,clear sky,30.48,-115.95,Old Mill Hotel
194,Salalah,OM,80.6,clear sky,17.02,54.09,HAMDAN PLAZA HOTEL
198,Alta Floresta,BR,83.59,light rain,-9.88,-56.09,Floresta Amazonica Hotel
214,Lufilufi,WS,86.0,scattered clouds,-13.87,-171.6,Leuaina Beach Resort and Spa
216,Atar,MR,84.43,light rain,20.52,-13.05,Oumou Elghoura
220,Radhanpur,IN,85.15,broken clouds,23.83,71.6,YASH HOTEL
225,Chirongui,YT,78.8,broken clouds,-12.93,45.15,La Villa Mahatsara
226,Martapura,ID,77.0,few clouds,-3.42,114.85,Montana Hotel Syariah
229,Sola,VU,81.63,light rain,-13.88,167.55,Leumerus Bungalows
231,Wichita Falls,US,84.0,clear sky,33.91,-98.49,Quality Inn & Suites Wichita Falls I-44
235,Kirakira,SB,80.76,overcast clouds,-10.45,161.92,SanBiz Lodge
239,Oistins,BB,80.6,broken clouds,13.07,-59.53,Butterfly Beach Hotel
245,Greenville,US,78.8,clear sky,35.61,-77.37,Holiday Inn Express Greenville
257,Half Moon Bay,US,84.0,clear sky,37.46,-122.43,"The Ritz-Carlton, Half Moon Bay"
258,Arraial Do Cabo,BR,77.0,clear sky,-22.97,-42.03,Pousada Porto Praia
261,Bubaque,GW,80.62,moderate rain,11.28,-15.83,Casa Dora - Mango Lodge
267,Manta,EC,82.4,few clouds,-0.95,-80.73,Balandra Hotel
270,Bintulu,MY,75.2,few clouds,3.17,113.03,900 Boutique INN
272,Porto Novo,BJ,80.6,scattered clouds,6.5,2.6,Tour Eiffel Hotel Benin
279,Grenville,GD,86.0,few clouds,12.12,-61.62,Valley Breeze Guest House
281,Alofi,NU,77.0,broken clouds,-19.06,-169.92,Taloa Heights
285,Kupang,ID,76.03,clear sky,-10.17,123.58,Sylvia Hotel Premier Kupang
286,Ashqelon,IL,75.0,scattered clouds,31.67,34.57,Leonardo Ashkelon
287,Eyl,SO,80.19,broken clouds,7.98,49.82,Amiin Hotel
291,Los Llanos De Aridane,ES,75.2,clear sky,28.66,-17.92,Valle Aridane
294,Kavaratti,IN,81.16,scattered clouds,10.57,72.64,Hotels in Lakshadweep Islands
297,Cabedelo,BR,78.8,few clouds,-6.98,-34.83,Lua Mansa Pousada
303,Sabang,ID,82.78,overcast clouds,5.89,95.32,Hotel Citra
308,Stephenville,US,82.4,clear sky,32.22,-98.2,La Quinta Inn & Suites by Wyndham Stephenville
309,Umm Lajj,SA,86.09,clear sky,25.02,37.27,Moon light Furnished Units
311,Karratha,AU,80.22,light rain,-20.74,116.85,ibis Styles Karratha
312,San Ramon,US,90.0,clear sky,37.78,-121.98,San Ramon Marriott
314,Oriximina,BR,84.09,light rain,-1.77,-55.87,Pousada Tia Amélia
316,Nata,PA,82.4,moderate rain,8.33,-80.52,Cabañas Estancia Bayamon
317,Tabou,CI,76.95,light rain,4.42,-7.35,hotêl doufoulougou
320,Quatre Cocos,MU,75.2,shower rain,-20.21,57.76,Emeraude Beach Attitude Hotel
323,Bathsheba,BB,80.6,broken clouds,13.22,-59.52,Atlantis Hotel
324,Bougouni,ML,78.85,clear sky,11.42,-7.48,Non Stop
328,Denpasar,ID,80.6,scattered clouds,-8.65,115.22,ASTON Denpasar Hotel & Convention Center
331,Victoria,HK,78.01,light rain,22.29,114.16,Mini Hotel Central
337,Georgetown,MY,75.2,few clouds,5.41,100.34,Cititel Penang
339,Pacific Grove,US,88.0,clear sky,36.62,-121.92,Lovers Point Inn
341,Miranda,CO,84.2,broken clouds,3.25,-76.23,Parqueadero toño lasso
344,Rawson,AR,75.99,broken clouds,-43.3,-65.1,Hotel Punta León
345,Puerto Carreno,CO,86.34,broken clouds,6.19,-67.49,Casa Hotel Victoria
352,Rivadavia,AR,87.8,clear sky,-33.19,-68.46,Posada Del Fin Del Mundo
359,Cabo San Lucas,MX,87.8,scattered clouds,22.89,-109.91,Hotel Tesoro Los Cabos
366,Laurens,US,88.0,broken clouds,32.45,-82.92,Holiday Inn Express & Suites Dublin
367,General Roca,AR,87.8,clear sky,-39.03,-67.58,Hotel El Recreo
368,Paragominas,BR,82.13,light rain,-2.97,-47.48,HOTEL RODA VIVA
369,Houma,US,87.8,broken clouds,29.6,-90.72,Courtyard by Marriott Houma
372,Horqueta,PY,88.66,overcast clouds,-23.34,-57.06,Hospedaje Heina
373,Fomboni,KM,79.34,light rain,-12.28,43.74,Auberge les abou
374,Cayenne,GF,86.0,broken clouds,4.93,-52.33,Hôtel Le Dronmi
376,Iracoubo,GF,82.56,clear sky,5.48,-53.2,Le Gite D Iracoubo
384,Vieux-Habitants,GP,78.8,few clouds,16.06,-61.77,Gîtes Dardanelle
389,Galesong,ID,75.2,overcast clouds,-5.32,119.37,Sapriadi Appy
395,Bandar-E Lengeh,IR,79.36,clear sky,26.56,54.88,کافی نت پارس
396,Vanimo,PG,78.55,light rain,-2.67,141.3,Vahmoneh Lodge Vanimo
400,Kralendijk,BQ,87.8,clear sky,12.15,-68.27,Divi Flamingo Beach Resort & Casino
401,Mango,US,88.0,scattered clouds,27.98,-82.31,Embassy Suites by Hilton Tampa Brandon - OPEN
402,Grand-Lahou,CI,77.14,overcast clouds,5.14,-5.02,Hotel Beatitude de Grand Lahou
408,Bangui,CF,75.2,thunderstorm,4.36,18.55,SAM HOTEL
415,Guanica,PR,82.99,light rain,17.97,-66.91,Copamarina Beach Resort & Spa
416,Phan Thiet,VN,76.84,light rain,10.93,108.1,Hotel Saigon-PT
417,Harrison,US,87.8,clear sky,30.41,-89.04,Residence Inn by Marriott Gulfport-Biloxi Airport
427,Boali,CF,75.2,thunderstorm,4.8,18.13,Auberge des Cocotiers Boali poste
430,Barao De Melgaco,BR,82.4,broken clouds,-16.19,-55.97,Tuiuiu Pantanal Hotel
433,Port Antonio,JM,84.2,scattered clouds,18.18,-76.46,Trident Hotel
435,Touros,BR,80.6,scattered clouds,-5.2,-35.46,INN NEW HORIZON
436,Namatanai,PG,77.76,light rain,-3.67,152.43,Namatanai Hotel
437,Leon,MX,82.4,broken clouds,21.12,-101.67,Hotel Misión León
439,Sao Filipe,CV,80.89,few clouds,14.9,-24.5,Tortuga B&B
440,Marsh Harbour,BS,82.81,overcast clouds,26.54,-77.06,Abaco Beach Resort
442,Upata,VE,83.07,light rain,8.01,-62.4,Posada Villa Nela
451,Paraipaba,BR,80.01,broken clouds,-3.44,-39.15,Hotel Passagem do Tigre
455,Abnub,EG,80.6,broken clouds,27.27,31.15,مسجد الخطبة
459,Laksham,BD,77.79,overcast clouds,23.25,91.14,MRI ROBEL
465,Kavieng,PG,81.54,moderate rain,-2.57,150.8,Nusa Island Retreat
466,Lujan,AR,80.01,clear sky,-34.57,-59.1,Hotel Biarritz
469,Tual,ID,81.19,overcast clouds,-5.67,132.75,Grand Vilia Hotel
470,Kahului,US,87.8,few clouds,20.89,-156.47,Maui Seaside Hotel
471,Santa Rosa,PH,78.8,moderate rain,14.31,121.11,Erlyn’s Sta Rosa City Home
476,Moa,CU,83.88,light rain,20.66,-74.94,Renta en Divisa
477,Ahuimanu,US,86.0,broken clouds,21.44,-157.84,Paradise Bay Resort
479,Lompoc,US,87.01,clear sky,34.64,-120.46,Holiday Inn Express Lompoc
481,Praya,CV,78.8,scattered clouds,14.92,-23.51,LT Aparthotel
486,Jieshi,CN,75.99,overcast clouds,22.81,115.83,Yuehai Hotel
489,Puri,IN,77.0,haze,19.8,85.85,OYO 1577 Hotel Shree Hari Grand
494,Baculin,PH,78.85,light rain,7.45,126.58,Shovy's Cove
497,Tiarei,PF,84.2,few clouds,-17.53,-149.33,Le Rocher de Tahiti
505,Manaus,BR,86.0,scattered clouds,-3.1,-60.02,Hotel do Largo
506,Ixtapa,MX,89.6,broken clouds,20.7,-105.2,Container Inn Puerto Vallarta
508,Katobu,ID,75.04,overcast clouds,-4.94,122.53,La Ode Husein
509,Bandarbeyla,SO,79.03,scattered clouds,9.49,50.81,REER XOOSHLE GROUP
512,Ibirama,BR,75.0,broken clouds,-27.06,-49.52,Hotel Soralete
513,Neuquen,AR,87.8,clear sky,-38.95,-68.06,Hotel del Comahue
516,Dwarka,IN,84.92,clear sky,22.24,68.97,Hotel Narayan Avezika Comfort
517,Chapada Dos Guimaraes,BR,82.4,light intensity shower rain,-15.46,-55.75,Pousada Morro Dos Ventos
522,Macau,MO,78.8,scattered clouds,22.2,113.55,Grand Emperor Hotel
533,Bilma,NE,88.79,clear sky,18.69,12.92,Expeditions Ténére voyages
536,Kualakapuas,ID,77.0,few clouds,-3.01,114.39,Guest House Izonk
538,Bhind,IN,79.12,broken clouds,26.56,78.79,Hotel Kanha Palace and Family Restaurant
540,Pizarro,CO,76.26,overcast clouds,4.95,-77.37,"Playa Pizarro, Bajo Baudó, Chocó, Colombia"
541,Port Blair,IN,79.38,moderate rain,11.67,92.75,Fortune Resort Bay Island
545,Biak,ID,77.58,overcast clouds,-0.91,122.88,Kost Ariz
547,Pedra,BR,76.26,scattered clouds,-8.5,-36.94,Pousada Oceanus
548,Samarai,PG,80.15,light rain,-10.62,150.67,Nuli Sapi
554,Brownsville,US,88.0,broken clouds,25.9,-97.5,Hotel Alameda Express
556,Pitimbu,BR,78.8,few clouds,-7.47,-34.81,Reserva do Abiaí
557,Beihai,CN,75.06,moderate rain,21.48,109.1,21 Degree Hostel
561,Tete,MZ,77.0,few clouds,-16.16,33.59,Zambeze Paraíso Misterioso
564,Lorengau,PG,81.43,moderate rain,-2.02,147.27,Lorengau Harbourside Hotel
569,Jarabacoa,DO,89.6,scattered clouds,19.12,-70.64,apartamento primaveral
570,Safaga,EG,84.2,clear sky,26.73,33.94,Lamar Resort Abu Soma
576,Palu,ID,75.58,overcast clouds,-0.89,119.87,Hotel Santika Palu
581,Pundaguitan,PH,82.18,light rain,6.37,126.17,Leonardo Family Beach House 1
585,Guarapari,BR,78.01,overcast clouds,-20.67,-40.5,Hotel Porto do Sol
588,Poum,NC,75.49,clear sky,-20.23,164.02,Gîte kajeon
589,San Luis,AR,84.58,clear sky,-33.3,-66.34,Huarpes Hotel
590,Aswan,EG,86.7,clear sky,24.09,32.91,Nuba Nile
595,Ishigaki,JP,79.14,overcast clouds,24.34,124.16,Hotel Peace Land Ishigakijima
596,Tomatlan,MX,89.31,broken clouds,19.93,-105.25,Norma franco
597,Lazaro Cardenas,MX,86.43,clear sky,17.96,-102.2,Collection O Hotel Quinta Antigua
611,San Rafael,AR,87.64,clear sky,-34.62,-68.33,Hotel San Rafael
615,Finschhafen,PG,81.23,overcast clouds,-6.6,147.87,Cossam Guest House
617,Cap Malheureux,MU,75.0,clear sky,-19.98,57.61,Pereybere Hotel & Spa
622,Ca Mau,VN,76.32,moderate rain,9.18,105.15,Khách Sạn Mường Thanh Luxury Cà Mau
625,Jasdan,IN,82.15,overcast clouds,22.03,71.2,Dhirubhai Bhelvala
628,Ukiah,US,89.01,clear sky,39.15,-123.21,Hampton Inn Ukiah
630,Liberal,US,78.8,clear sky,37.04,-100.92,Hampton Inn & Suites Liberal
634,Damietta,EG,77.0,clear sky,31.42,31.81,العواد لتجارة الابلكاش
636,Ratnagiri,IN,78.13,light rain,16.98,73.3,Hotel Landmark
640,Polewali,ID,77.04,broken clouds,-3.43,119.34,Lilianto Hotel
641,Gwadar,PK,76.53,clear sky,25.12,62.33,Sadaf Resort
645,Papara,BR,80.6,few clouds,-3.98,-38.73,Bela vista Maranguape
646,Maun,BW,78.8,clear sky,-19.98,23.42,Enviro Villa
647,Awbari,LY,75.94,clear sky,26.59,12.78,فندق أوباري
648,Sur,OM,77.13,clear sky,22.57,59.53,Sur Plaza Hotel
651,Rosita,NI,79.54,moderate rain,13.93,-84.4,Colonia Cristo Rey
654,Coihueco,CL,77.0,clear sky,-36.62,-71.83,Frutillares Coihueco
655,Padang,ID,77.41,overcast clouds,-0.95,100.35,Mercure Padang
657,Sawakin,SD,82.99,clear sky,19.11,37.33,فندق الدويم
660,Iralaya,HN,85.59,light rain,15.0,-83.23,Iglesia morava renovada
665,Phalodi,IN,82.81,scattered clouds,27.13,72.37,"HOTEL NEW GOLDEN PALACE , PHALODI"
667,Bom Jesus,BR,88.32,clear sky,-9.07,-44.36,Hotel Brasão & Floricultura Bella Flor
668,Abu Dhabi,AE,87.8,clear sky,24.47,54.37,Beach Rotana
670,Maceio,BR,78.8,few clouds,-9.67,-35.74,Mercure Maceio Pajucara Hotel
671,Mecca,SA,76.5,clear sky,21.43,39.83,Hotel Fairmont Makkah Clock Royal Tower
678,Boulder,US,75.2,clear sky,40.08,-105.35,Deck House Boulder
680,Sumenep,ID,80.46,overcast clouds,-7.02,113.87,OYO 3271 Homestay Pandian
685,Ambunti,PG,75.4,overcast clouds,-4.24,142.84,Ambunti Lodge
